{"code":"416300501","name":"도락산","lines":[[[36.87441,128.29254],[36.87381,128.29271],[36.87322,128.2926],[36.87304,128.29291],[36.8731,128.29365],[36.87256,128.29416],[36.87228,128.29487],[36.87219,128.29536],[36.87189,128.29579],[36.8714,128.29585],[36.87081,128.29621],[36.87022,128.29637],[36.86971,128.29673],[36.86918,128.29694],[36.86877,128.29716],[36.86843,128.29712],[36.86812,128.29772],[36.86793,128.29814],[36.86794,128.29881],[36.86798,128.2993],[36.86803,128.29974],[36.86816,128.30019],[36.86804,128.30064],[36.86769,128.30106],[36.86728,128.30157],[36.867,128.3022],[36.86696,128.30271],[36.86676,128.30325],[36.86635,128.30381],[36.86591,128.3042],[36.86583,128.30492],[36.86557,128.30551],[36.86571,128.3062],[36.86523,128.30595],[36.86458,128.30605],[36.86396,128.30589],[36.86335,128.30579],[36.86266,128.30548],[36.86216,128.30545],[36.86158,128.30559],[36.86113,128.30536],[36.86063,128.3055],[36.86011,128.30546],[36.85968,128.30569],[36.8595,128.30607],[36.85913,128.30664],[36.85903,128.30743],[36.8588,128.30803],[36.85799,128.30856],[36.85756,128.30901],[36.85749,128.30966],[36.8571,128.31009],[36.85679,128.31069],[36.85943,128.30611],[36.85898,128.30534],[36.8589,128.30471],[36.85865,128.30429],[36.85838,128.30368],[36.85818,128.30322],[36.85831,128.30267],[36.85847,128.30208],[36.85867,128.30145],[36.85886,128.30092],[36.85928,128.3005],[36.85922,128.29988],[36.85926,128.29939],[36.85953,128.29867],[36.8599,128.29824],[36.86035,128.29788],[36.86098,128.29774],[36.86155,128.29759],[36.86203,128.29767],[36.86264,128.29772],[36.86318,128.29765],[36.86369,128.29781],[36.86423,128.29748],[36.86464,128.29713],[36.86498,128.29651],[36.86548,128.29589],[36.866,128.29553],[36.86649,128.29533],[36.86702,128.29516],[36.86744,128.29537],[36.86796,128.29499],[36.86846,128.29497],[36.86904,128.29493],[36.86951,128.29426],[36.87003,128.29375],[36.87056,128.29378],[36.87123,128.2939],[36.87173,128.29463],[36.87222,128.29504]]],"poiCounts":{},"pois":[],"peak":[36.868103,128.300476],"nearby":{"clat":36.86489347826087,"clng":128.30025206521745,"stops":[{"name":"가산2리","lat":36.874323,"lng":128.2925992}],"photos":[{"title":"청산도","url":"https://tong.visitkorea.or.kr/cms/resource_photo/24/921224_image2_1.jpg","thumb":"https://tong.visitkorea.or.kr/cms/resource_photo/24/921224_image2_1.jpg","location":"전남광주통합특별시 완도","author":"한국관광공사-박동철","keyword":"청산도, 완도, 도락리 풍경, 바다, 섬, 어촌풍경, 슬로시티, 슬로우시티, 녹색관광, 1박2일"},{"title":"청산도","url":"https://tong.visitkorea.or.kr/cms/resource_photo/29/921229_image2_1.jpg","thumb":"https://tong.visitkorea.or.kr/cms/resource_photo/29/921229_image2_1.jpg","location":"전남광주통합특별시 완도","author":"한국관광공사-박동철","keyword":"청산도, 완도, 도락리 풍경, 바다, 섬, 어촌풍경, 슬로시티, 슬로우시티, 녹색관광, 1박2일"},{"title":"청산도","url":"https://tong.visitkorea.or.kr/cms/resource_photo/37/921237_image2_1.jpg","thumb":"https://tong.visitkorea.or.kr/cms/resource_photo/37/921237_image2_1.jpg","location":"전남광주통합특별시 완도","author":"한국관광공사-박동철","keyword":"청산도, 완도, 도락리 풍경, 바다, 섬, 어촌풍경, 슬로시티, 슬로우시티, 녹색관광, 1박2일"},{"title":"대흥사(단양)","url":"http://tong.visitkorea.or.kr/cms/resource/44/3582144_image2_1.jpg","thumb":"http://tong.visitkorea.or.kr/cms/resource/44/3582144_image3_1.jpg","location":"충청북도 단양군 대강면 황정산로 423"},{"title":"방곡 도예촌","url":"http://tong.visitkorea.or.kr/cms/resource/18/3581918_image2_1.jpg","thumb":"http://tong.visitkorea.or.kr/cms/resource/18/3581918_image3_1.jpg","location":"충청북도 단양군 대강면 선암계곡로 148"},{"title":"상선암","url":"http://tong.visitkorea.or.kr/cms/resource/99/3346099_image2_1.JPG","thumb":"http://tong.visitkorea.or.kr/cms/resource/99/3346099_image3_1.JPG","location":"충청북도 단양군 선암계곡로 790 상선암"},{"title":"중선암","url":"http://tong.visitkorea.or.kr/cms/resource/06/3558506_image2_1.JPG","thumb":"http://tong.visitkorea.or.kr/cms/resource/06/3558506_image3_1.JPG","location":"충청북도 단양군 단성면 가산리"},{"title":"청련암(단양)","url":"http://tong.visitkorea.or.kr/cms/resource/55/3390355_image2_1.JPG","thumb":"http://tong.visitkorea.or.kr/cms/resource/55/3390355_image3_1.JPG","location":"충청북도 단양군 대강면 사인암2길 42"},{"title":"충북 단양 팔경을 찾아 떠나요","url":"http://tong.visitkorea.or.kr/cms/resource/22/689422_image2_1.jpg","thumb":"http://tong.visitkorea.or.kr/cms/resource/22/689422_image3_1.jpg","location":""}],"peaks":[{"name":"형봉","desc":null,"lat":36.85965,"lng":128.305695,"alt":911,"signposts":[]},{"name":"도락산","desc":null,"lat":36.856316,"lng":128.311111,"alt":987,"signposts":[]},{"name":"신선봉","desc":null,"lat":36.858883,"lng":128.307755,"alt":938,"signposts":[]},{"name":"채운봉","desc":null,"lat":36.858276,"lng":128.303558,"alt":892,"signposts":[]},{"name":"검봉","desc":null,"lat":36.859146,"lng":128.299622,"alt":848,"signposts":[]},{"name":"도락산964m","desc":"정상석","lat":36.856293,"lng":128.311035,"alt":932,"signposts":[]},{"name":"상선암봉","desc":null,"lat":36.868103,"lng":128.300476,"alt":659,"signposts":[]},{"name":"제봉","desc":null,"lat":36.865643,"lng":128.306122,"alt":843,"signposts":[]}]}}