{"code":"427704401","name":"운장산","lines":[[[35.92909,127.34936],[35.9279,127.3495],[35.92736,127.3482],[35.92635,127.34757],[35.92519,127.34839],[35.92401,127.34905],[35.92314,127.34974],[35.9219,127.34976],[35.92083,127.34978],[35.91953,127.34987],[35.91837,127.34966],[35.91767,127.35062],[35.91681,127.35134],[35.91622,127.35169],[35.91552,127.35251],[35.91423,127.35252],[35.91346,127.35305],[35.91284,127.35443],[35.91258,127.35593],[35.91169,127.35711],[35.91167,127.35848],[35.91224,127.36001],[35.9132,127.36135],[35.91435,127.36206],[35.91538,127.36257],[35.91589,127.36406],[35.91615,127.36522],[35.91676,127.36631],[35.91787,127.36718],[35.91839,127.36862],[35.91915,127.3698],[35.92009,127.37085],[35.91993,127.37203],[35.92016,127.37293],[35.91978,127.37419],[35.91909,127.37531],[35.91823,127.37654],[35.91832,127.37816],[35.91831,127.37921],[35.91919,127.38054],[35.9203,127.38118],[35.9217,127.38125],[35.92225,127.38102],[35.92315,127.38165],[35.92395,127.383],[35.92469,127.38431],[35.92534,127.3857],[35.92612,127.38672],[35.92762,127.38649],[35.92911,127.38707],[35.93017,127.38835],[35.93107,127.38962],[35.93197,127.39057],[35.93186,127.39254],[35.93165,127.3941],[35.9315,127.39569],[35.931,127.39646],[35.92996,127.39743],[35.92902,127.3986],[35.928,127.3999],[35.92692,127.40094],[35.92573,127.40163],[35.92444,127.40266],[35.9235,127.40344],[35.92282,127.40497],[35.92205,127.40615],[35.92152,127.40744],[35.92224,127.40836],[35.92265,127.40989],[35.92302,127.41143],[35.92375,127.41231],[35.92441,127.41376],[35.92404,127.41516],[35.9238,127.41651],[35.92338,127.41722],[35.92453,127.41777],[35.92529,127.41812],[35.92573,127.41917],[35.92563,127.42053],[35.92622,127.42118],[35.92692,127.42225],[35.92747,127.42331],[35.92769,127.42436],[35.92827,127.42562],[35.92783,127.42687],[35.92701,127.42741],[35.92597,127.42813],[35.92498,127.42854],[35.92431,127.4296],[35.92372,127.43094],[35.92303,127.43203],[35.92273,127.4335],[35.92281,127.4349],[35.92346,127.43541]]],"poiCounts":{},"pois":[],"peak":[35.913528,127.352753],"nearby":{"clat":35.92262914893617,"clng":127.3874325531915,"stops":[],"photos":[{"title":"국립 운장산자연휴양림","url":"http://tong.visitkorea.or.kr/cms/resource/78/3561378_image2_1.jpg","thumb":"http://tong.visitkorea.or.kr/cms/resource/78/3561378_image3_1.jpg","location":"전북특별자치도 진안군 정천면 휴양림길 77"},{"title":"운장산","url":"http://tong.visitkorea.or.kr/cms/resource/80/531380_image2_1.jpg","thumb":"http://tong.visitkorea.or.kr/cms/resource/80/531380_image3_1.jpg","location":"전북특별자치도 완주군 동상면"},{"title":"천황사(진안)","url":"http://tong.visitkorea.or.kr/cms/resource/73/3365373_image2_1.JPG","thumb":"http://tong.visitkorea.or.kr/cms/resource/73/3365373_image3_1.JPG","location":"전북특별자치도 진안군 정천면 수암길 54"}],"peaks":[{"name":"운장대","desc":"1126","lat":35.911304,"lng":127.357658,"alt":1129,"signposts":[]},{"name":"운장대","desc":"1126","lat":35.911304,"lng":127.357658,"alt":1129,"signposts":[]},{"name":"운장대","desc":"1126","lat":35.911304,"lng":127.357658,"alt":1129,"signposts":[]},{"name":"운장대","desc":"1126","lat":35.911304,"lng":127.357658,"alt":1129,"signposts":[]},{"name":"삼장봉","desc":"1133","lat":35.914227,"lng":127.362106,"alt":1137,"signposts":[]},{"name":"곰직이산","desc":"외로운 폐묘 1기","lat":35.92194,"lng":127.381271,"alt":1095,"signposts":[]},{"name":"복두봉","desc":"구봉산1.7.","lat":35.931301,"lng":127.39653,"alt":1033,"signposts":[]},{"name":"운장산","desc":"운장산정산","lat":35.911255,"lng":127.357498,"alt":1116,"signposts":[]}]}}